[
  {
    "name": "Авиамоторная",
    "color": [
      "FFCD1C",
      "CC0066"
    ],
    "lat": "55.751933",
    "lng": "37.717444"
  },
  {
    "name": "Автозаводская",
    "color": [
      "4FB04F",
      "CC4C6E"
    ],
    "lat": "55.706634",
    "lng": "37.657008"
  },
  {
    "name": "Академическая",
    "color": [
      "F07E24"
    ],
    "lat": "55.687147",
    "lng": "37.5723"
  },
  {
    "name": "Александровский сад",
    "color": [
      "1EBCEF"
    ],
    "lat": "55.752255",
    "lng": "37.608775"
  },
  {
    "name": "Алексеевская",
    "color": [
      "F07E24"
    ],
    "lat": "55.807794",
    "lng": "37.638699"
  },
  {
    "name": "Алма-Атинская",
    "color": [
      "4FB04F"
    ],
    "lat": "55.63349",
    "lng": "37.765678"
  },
  {
    "name": "Алтуфьево",
    "color": [
      "ADACAC"
    ],
    "lat": "55.899034",
    "lng": "37.586473"
  },
  {
    "name": "Аминьевская",
    "color": [
      "88CDCF"
    ],
    "lat": "55.697222",
    "lng": "37.464167"
  },
  {
    "name": "Андроновка",
    "color": [
      "CC4C6E"
    ],
    "lat": "55.741111",
    "lng": "37.734444"
  },
  {
    "name": "Аникеевка",
    "color": [
      "E74683"
    ],
    "lat": "55.832099",
    "lng": "37.219829"
  },
  {
    "name": "Аннино",
    "color": [
      "ADACAC"
    ],
    "lat": "55.583477",
    "lng": "37.596999"
  },
  {
    "name": "Арбатская",
    "color": [
      "0072BA",
      "1EBCEF"
    ],
    "lat": "55.752312",
    "lng": "37.60349"
  },
  {
    "name": "Аэропорт",
    "color": [
      "4FB04F"
    ],
    "lat": "55.800441",
    "lng": "37.530477"
  },
  {
    "name": "Бабушкинская",
    "color": [
      "F07E24"
    ],
    "lat": "55.870641",
    "lng": "37.664341"
  },
  {
    "name": "Багратионовская",
    "color": [
      "1EBCEF"
    ],
    "lat": "55.743544",
    "lng": "37.497042"
  },
  {
    "name": "Баковка",
    "color": [
      "F5A528"
    ],
    "lat": "55.682816",
    "lng": "37.315205"
  },
  {
    "name": "Балтийская",
    "color": [
      "CC4C6E"
    ],
    "lat": "55.825833",
    "lng": "37.496111"
  },
  {
    "name": "Баррикадная",
    "color": [
      "943E90"
    ],
    "lat": "55.760793",
    "lng": "37.581242"
  },
  {
    "name": "Бауманская",
    "color": [
      "0072BA"
    ],
    "lat": "55.772405",
    "lng": "37.67904"
  },
  {
    "name": "Беговая",
    "color": [
      "943E90",
      "F5A528"
    ],
    "lat": "55.773505",
    "lng": "37.545518"
  },
  {
    "name": "Белокаменная",
    "color": [
      "CC4C6E"
    ],
    "lat": "55.83",
    "lng": "37.700556"
  },
  {
    "name": "Беломорская",
    "color": [
      "4FB04F"
    ],
    "lat": "55.8651",
    "lng": "37.4764"
  },
  {
    "name": "Белорусская",
    "color": [
      "4FB04F",
      "915133",
      "F5A528"
    ],
    "lat": "55.777439",
    "lng": "37.582107"
  },
  {
    "name": "Беляево",
    "color": [
      "F07E24"
    ],
    "lat": "55.642357",
    "lng": "37.526115"
  },
  {
    "name": "Бескудниково",
    "color": [
      "F5A528"
    ],
    "lat": "55.882713",
    "lng": "37.567768"
  },
  {
    "name": "Бибирево",
    "color": [
      "ADACAC"
    ],
    "lat": "55.883868",
    "lng": "37.603011"
  },
  {
    "name": "Библиотека им.Ленина",
    "color": [
      "E42313"
    ],
    "lat": "55.752123",
    "lng": "37.610388"
  },
  {
    "name": "Битца",
    "color": [
      "E74683"
    ],
    "lat": "55.571186",
    "lng": "37.611443"
  },
  {
    "name": "Битцевский Парк",
    "color": [
      "BAC8E8"
    ],
    "lat": "55.600066",
    "lng": "37.556058"
  },
  {
    "name": "Борисово",
    "color": [
      "BED12C"
    ],
    "lat": "55.6325",
    "lng": "37.743333"
  },
  {
    "name": "Боровицкая",
    "color": [
      "ADACAC"
    ],
    "lat": "55.750399",
    "lng": "37.60934"
  },
  {
    "name": "Боровское шоссе",
    "color": [
      "FFCD1C"
    ],
    "lat": "55.647",
    "lng": "37.3701"
  },
  {
    "name": "Ботанический сад",
    "color": [
      "F07E24",
      "CC4C6E"
    ],
    "lat": "55.844597",
    "lng": "37.637811"
  },
  {
    "name": "Братиславская",
    "color": [
      "BED12C"
    ],
    "lat": "55.658817",
    "lng": "37.748415"
  },
  {
    "name": "Бульвар Адмирала Ушакова",
    "color": [
      "BAC8E8"
    ],
    "lat": "55.545207",
    "lng": "37.542329"
  },
  {
    "name": "Бульвар Дмитрия Донского",
    "color": [
      "ADACAC"
    ],
    "lat": "55.568201",
    "lng": "37.576856"
  },
  {
    "name": "Бульвар Рокоссовского",
    "color": [
      "E42313",
      "CC4C6E"
    ],
    "lat": "55.814916",
    "lng": "37.732227"
  },
  {
    "name": "Бунинская аллея",
    "color": [
      "BAC8E8"
    ],
    "lat": "55.537977",
    "lng": "37.515899"
  },
  {
    "name": "Бутово",
    "color": [
      "E74683"
    ],
    "lat": "55.548279",
    "lng": "37.555668"
  },
  {
    "name": "Бутырская ",
    "color": [
      "BED12C"
    ],
    "lat": "55.813333",
    "lng": "37.602778"
  },
  {
    "name": "ВДНХ",
    "color": [
      "F07E24"
    ],
    "lat": "55.819626",
    "lng": "37.640751"
  },
  {
    "name": "Варшавская",
    "color": [
      "88CDCF"
    ],
    "lat": "55.653294",
    "lng": "37.619522"
  },
  {
    "name": "Верхние Котлы",
    "color": [
      "CC4C6E"
    ],
    "lat": "55.69",
    "lng": "37.618889"
  },
  {
    "name": "Верхние Лихоборы",
    "color": [
      "BED12C"
    ],
    "lat": "55.85566",
    "lng": "37.56282"
  },
  {
    "name": "Владыкино",
    "color": [
      "ADACAC",
      "CC4C6E"
    ],
    "lat": "55.848236",
    "lng": "37.590451"
  },
  {
    "name": "Водники",
    "color": [
      "F5A528"
    ],
    "lat": "55.953419",
    "lng": "37.511143"
  },
  {
    "name": "Водный стадион",
    "color": [
      "4FB04F"
    ],
    "lat": "55.838978",
    "lng": "37.487515"
  },
  {
    "name": "Войковская",
    "color": [
      "4FB04F"
    ],
    "lat": "55.818923",
    "lng": "37.497791"
  },
  {
    "name": "Волгоградский проспект",
    "color": [
      "943E90"
    ],
    "lat": "55.725546",
    "lng": "37.685197"
  },
  {
    "name": "Волжская",
    "color": [
      "BED12C"
    ],
    "lat": "55.690446",
    "lng": "37.754314"
  },
  {
    "name": "Волоколамская",
    "color": [
      "0072BA",
      "E74683"
    ],
    "lat": "55.835154",
    "lng": "37.382453"
  },
  {
    "name": "Воробьевы горы",
    "color": [
      "E42313"
    ],
    "lat": "55.709169",
    "lng": "37.557293"
  },
  {
    "name": "Воронцовская",
    "color": [
      "88CDCF"
    ],
    "lat": "55.658333",
    "lng": "37.540833"
  },
  {
    "name": "Выставочная",
    "color": [
      "1EBCEF"
    ],
    "lat": "55.750243",
    "lng": "37.542641"
  },
  {
    "name": "Выставочный центр",
    "color": [
      "006DA8"
    ],
    "lat": "55.824086",
    "lng": "37.638494"
  },
  {
    "name": "Выхино",
    "color": [
      "943E90"
    ],
    "lat": "55.715983",
    "lng": "37.816788"
  },
  {
    "name": "Говорово ",
    "color": [
      "FFCD1C"
    ],
    "lat": "55.6588",
    "lng": "37.4174"
  },
  {
    "name": "Гражданская",
    "color": [
      "E74683"
    ],
    "lat": "55.805527",
    "lng": "37.55315"
  },
  {
    "name": "Давыдково",
    "color": [
      "88CDCF"
    ],
    "lat": "55.765278",
    "lng": "37.451667"
  },
  {
    "name": "Дегунино",
    "color": [
      "F5A528"
    ],
    "lat": "55.86586",
    "lng": "37.573235"
  },
  {
    "name": "Деловой центр",
    "color": [
      "FFCD1C",
      "CC4C6E",
      "88CDCF"
    ],
    "lat": "55.7491",
    "lng": "37.5395"
  },
  {
    "name": "Депо",
    "color": [
      "E74683"
    ],
    "lat": "55.674257",
    "lng": "37.728446"
  },
  {
    "name": "Динамо",
    "color": [
      "4FB04F"
    ],
    "lat": "55.789704",
    "lng": "37.558212"
  },
  {
    "name": "Дмитровская",
    "color": [
      "ADACAC",
      "E74683"
    ],
    "lat": "55.808056",
    "lng": "37.581734"
  },
  {
    "name": "Добрынинская",
    "color": [
      "915133"
    ],
    "lat": "55.728994",
    "lng": "37.622533"
  },
  {
    "name": "Долгопрудная",
    "color": [
      "F5A528"
    ],
    "lat": "55.938656",
    "lng": "37.520542"
  },
  {
    "name": "Домодедовская",
    "color": [
      "4FB04F"
    ],
    "lat": "55.610131",
    "lng": "37.717111"
  },
  {
    "name": "Достоевская",
    "color": [
      "BED12C"
    ],
    "lat": "55.781667",
    "lng": "37.613889"
  },
  {
    "name": "Дубровка",
    "color": [
      "BED12C",
      "CC4C6E"
    ],
    "lat": "55.71807",
    "lng": "37.676259"
  },
  {
    "name": "Жулебино",
    "color": [
      "943E90"
    ],
    "lat": "55.684722",
    "lng": "37.855833"
  },
  {
    "name": "ЗИЛ",
    "color": [
      "CC4C6E"
    ],
    "lat": "55.698333",
    "lng": "37.648333"
  },
  {
    "name": "Зорге",
    "color": [
      "CC4C6E"
    ],
    "lat": "55.787778",
    "lng": "37.504444"
  },
  {
    "name": "Зюзино",
    "color": [
      "88CDCF"
    ],
    "lat": "55.489722",
    "lng": "37.572222"
  },
  {
    "name": "Зябликово",
    "color": [
      "BED12C"
    ],
    "lat": "55.611944",
    "lng": "37.745278"
  },
  {
    "name": "Измайлово",
    "color": [
      "CC4C6E"
    ],
    "lat": "55.788611",
    "lng": "37.742778"
  },
  {
    "name": "Измайловская",
    "color": [
      "0072BA"
    ],
    "lat": "55.787713",
    "lng": "37.779896"
  },
  {
    "name": "Каланчёвская",
    "color": [
      "E74683"
    ],
    "lat": "55.77667",
    "lng": "37.65111"
  },
  {
    "name": "Калитники",
    "color": [
      "E74683"
    ],
    "lat": "55.733981",
    "lng": "37.702203"
  },
  {
    "name": "Калужская",
    "color": [
      "F07E24"
    ],
    "lat": "55.656682",
    "lng": "37.540075"
  },
  {
    "name": "Кантемировская",
    "color": [
      "4FB04F"
    ],
    "lat": "55.636107",
    "lng": "37.656218"
  },
  {
    "name": "Каховская",
    "color": [
      "88CDCF"
    ],
    "lat": "55.652923",
    "lng": "37.596573"
  },
  {
    "name": "Каширская",
    "color": [
      "4FB04F",
      "88CDCF"
    ],
    "lat": "55.655745",
    "lng": "37.649683"
  },
  {
    "name": "Киевская",
    "color": [
      "0072BA",
      "1EBCEF",
      "915133"
    ],
    "lat": "55.743117",
    "lng": "37.564132"
  },
  {
    "name": "Китай-город",
    "color": [
      "F07E24",
      "943E90"
    ],
    "lat": "55.756498",
    "lng": "37.631326"
  },
  {
    "name": "Кожуховская",
    "color": [
      "BED12C"
    ],
    "lat": "55.706156",
    "lng": "37.68544"
  },
  {
    "name": "Коломенская",
    "color": [
      "4FB04F"
    ],
    "lat": "55.677423",
    "lng": "37.663719"
  },
  {
    "name": "Коммунарка",
    "color": [
      "E42313"
    ],
    "lat": "55.559765",
    "lng": "37.468716"
  },
  {
    "name": "Комсомольская",
    "color": [
      "E42313",
      "915133"
    ],
    "lat": "55.774072",
    "lng": "37.654565"
  },
  {
    "name": "Коньково",
    "color": [
      "F07E24"
    ],
    "lat": "55.631857",
    "lng": "37.519156"
  },
  {
    "name": "Коптево",
    "color": [
      "CC4C6E"
    ],
    "lat": "55.839637",
    "lng": "37.520037"
  },
  {
    "name": "Косино",
    "color": [
      "CC0066"
    ],
    "lat": "55.7026",
    "lng": "37.8511"
  },
  {
    "name": "Котельники",
    "color": [
      "943E90"
    ],
    "lat": "55.6743",
    "lng": "37.8582"
  },
  {
    "name": "Красногвардейская",
    "color": [
      "4FB04F"
    ],
    "lat": "55.614075",
    "lng": "37.742697"
  },
  {
    "name": "Красногорская",
    "color": [
      "E74683"
    ],
    "lat": "55.814571",
    "lng": "37.303337"
  },
  {
    "name": "Краснопресненская",
    "color": [
      "915133"
    ],
    "lat": "55.760378",
    "lng": "37.577114"
  },
  {
    "name": "Красносельская",
    "color": [
      "E42313"
    ],
    "lat": "55.780014",
    "lng": "37.666097"
  },
  {
    "name": "Красные ворота",
    "color": [
      "E42313"
    ],
    "lat": "55.768307",
    "lng": "37.6478"
  },
  {
    "name": "Красный Балтиец",
    "color": [
      "E74683"
    ],
    "lat": "55.815514",
    "lng": "37.526367"
  },
  {
    "name": "Красный строитель",
    "color": [
      "E74683"
    ],
    "lat": "55.589455",
    "lng": "37.615093"
  },
  {
    "name": "Крестьянская застава",
    "color": [
      "BED12C"
    ],
    "lat": "55.732278",
    "lng": "37.665325"
  },
  {
    "name": "Кропоткинская",
    "color": [
      "E42313"
    ],
    "lat": "55.745297",
    "lng": "37.604217"
  },
  {
    "name": "Крылатское",
    "color": [
      "0072BA"
    ],
    "lat": "55.756842",
    "lng": "37.408139"
  },
  {
    "name": "Крымская",
    "color": [
      "CC4C6E"
    ],
    "lat": "55.690038",
    "lng": "37.605"
  },
  {
    "name": "Кузнецкий мост",
    "color": [
      "943E90"
    ],
    "lat": "55.761498",
    "lng": "37.624423"
  },
  {
    "name": "Кузьминки",
    "color": [
      "943E90"
    ],
    "lat": "55.705493",
    "lng": "37.763295"
  },
  {
    "name": "Кунцевская",
    "color": [
      "0072BA",
      "1EBCEF",
      "88CDCF",
      "F5A528"
    ],
    "lat": "55.730673",
    "lng": "37.446522"
  },
  {
    "name": "Курская",
    "color": [
      "0072BA",
      "915133",
      "E74683"
    ],
    "lat": "55.758564",
    "lng": "37.659039"
  },
  {
    "name": "Курьяново",
    "color": [
      "E74683"
    ],
    "lat": "55.649722",
    "lng": "37.701667"
  },
  {
    "name": "Кутузовская",
    "color": [
      "1EBCEF",
      "CC4C6E"
    ],
    "lat": "55.740544",
    "lng": "37.5341"
  },
  {
    "name": "Ленинский проспект",
    "color": [
      "F07E24"
    ],
    "lat": "55.70678",
    "lng": "37.58499"
  },
  {
    "name": "Лермонтовский проспект",
    "color": [
      "943E90"
    ],
    "lat": "55.702036",
    "lng": "37.851044"
  },
  {
    "name": "Лесопарковая",
    "color": [
      "BAC8E8"
    ],
    "lat": "55.581656",
    "lng": "37.577816"
  },
  {
    "name": "Лефортово",
    "color": [
      "CC0066"
    ],
    "lat": "55.764444",
    "lng": "37.702778"
  },
  {
    "name": "Лианозово",
    "color": [
      "F5A528"
    ],
    "lat": "55.897316",
    "lng": "37.553261"
  },
  {
    "name": "Лихоборы",
    "color": [
      "CC4C6E"
    ],
    "lat": "55.847222",
    "lng": "37.551389"
  },
  {
    "name": "Лобня",
    "color": [
      "F5A528"
    ],
    "lat": "56.0048",
    "lng": "37.29057"
  },
  {
    "name": "Локомотив",
    "color": [
      "CC4C6E"
    ],
    "lat": "55.803219",
    "lng": "37.745742"
  },
  {
    "name": "Ломоносовский проспект",
    "color": [
      "FFCD1C"
    ],
    "lat": "55.7055",
    "lng": "37.5225"
  },
  {
    "name": "Лубянка",
    "color": [
      "E42313"
    ],
    "lat": "55.759889",
    "lng": "37.625336"
  },
  {
    "name": "Лужники",
    "color": [
      "CC4C6E"
    ],
    "lat": "55.720278",
    "lng": "37.563056"
  },
  {
    "name": "Лухмановская",
    "color": [
      "CC0066"
    ],
    "lat": "55.7078",
    "lng": "37.9004"
  },
  {
    "name": "Люблино",
    "color": [
      "BED12C",
      "E74683"
    ],
    "lat": "55.676596",
    "lng": "37.761639"
  },
  {
    "name": "Марк",
    "color": [
      "F5A528"
    ],
    "lat": "55.904458",
    "lng": "37.538242"
  },
  {
    "name": "Марксистская",
    "color": [
      "FFCD1C"
    ],
    "lat": "55.740746",
    "lng": "37.65604"
  },
  {
    "name": "Марьина Роща",
    "color": [
      "BED12C"
    ],
    "lat": "55.793723",
    "lng": "37.61618"
  },
  {
    "name": "Марьино",
    "color": [
      "BED12C"
    ],
    "lat": "55.649158",
    "lng": "37.743844"
  },
  {
    "name": "Маяковская",
    "color": [
      "4FB04F"
    ],
    "lat": "55.769808",
    "lng": "37.596192"
  },
  {
    "name": "Медведково",
    "color": [
      "F07E24"
    ],
    "lat": "55.888103",
    "lng": "37.661562"
  },
  {
    "name": "Международная",
    "color": [
      "1EBCEF"
    ],
    "lat": "55.748324",
    "lng": "37.533282"
  },
  {
    "name": "Менделеевская",
    "color": [
      "ADACAC"
    ],
    "lat": "55.781999",
    "lng": "37.599141"
  },
  {
    "name": "Минская",
    "color": [
      "FFCD1C"
    ],
    "lat": "55.7232",
    "lng": "37.5038"
  },
  {
    "name": "Митино",
    "color": [
      "0072BA"
    ],
    "lat": "55.846098",
    "lng": "37.36122"
  },
  {
    "name": "Мичуринский проспект",
    "color": [
      "FFCD1C",
      "88CDCF"
    ],
    "lat": "55.6888",
    "lng": "37.485"
  },
  {
    "name": "Мнёвники",
    "color": [
      "88CDCF"
    ],
    "lat": "55.761153",
    "lng": "37.47139"
  },
  {
    "name": "Молодежная",
    "color": [
      "0072BA"
    ],
    "lat": "55.741375",
    "lng": "37.415627"
  },
  {
    "name": "Москва Товарная",
    "color": [
      "E74683"
    ],
    "lat": "55.745358",
    "lng": "37.688839"
  },
  {
    "name": "Москворечье",
    "color": [
      "E74683"
    ],
    "lat": "55.641239",
    "lng": "37.689789"
  },
  {
    "name": "Мякинино",
    "color": [
      "0072BA"
    ],
    "lat": "55.823342",
    "lng": "37.385214"
  },
  {
    "name": "Нагатинская",
    "color": [
      "ADACAC"
    ],
    "lat": "55.682099",
    "lng": "37.620917"
  },
  {
    "name": "Нагорная",
    "color": [
      "ADACAC"
    ],
    "lat": "55.672962",
    "lng": "37.610397"
  },
  {
    "name": "Народное Ополчение",
    "color": [
      "88CDCF"
    ],
    "lat": "55.775278",
    "lng": "39.484444"
  },
  {
    "name": "Нахабино",
    "color": [
      "E74683"
    ],
    "lat": "55.841522",
    "lng": "37.185204"
  },
  {
    "name": "Нахимовский проспект",
    "color": [
      "ADACAC"
    ],
    "lat": "55.662379",
    "lng": "37.605274"
  },
  {
    "name": "Некрасовка",
    "color": [
      "CC0066"
    ],
    "lat": "55.7029",
    "lng": "37.9264"
  },
  {
    "name": "Немчиновка",
    "color": [
      "F5A528"
    ],
    "lat": "55.715668",
    "lng": "37.374611"
  },
  {
    "name": "Нижегородская",
    "color": [
      "CC4C6E",
      "CC0066"
    ],
    "lat": "55.732222",
    "lng": "37.72825"
  },
  {
    "name": "Новаторская",
    "color": [
      "88CDCF"
    ],
    "lat": "55.670833",
    "lng": "37.52"
  },
  {
    "name": "Новогиреево",
    "color": [
      "FFCD1C"
    ],
    "lat": "55.752237",
    "lng": "37.814587"
  },
  {
    "name": "Новодачная",
    "color": [
      "F5A528"
    ],
    "lat": "55.924459",
    "lng": "37.527877"
  },
  {
    "name": "Новокосино",
    "color": [
      "FFCD1C"
    ],
    "lat": "55.745113",
    "lng": "37.864052"
  },
  {
    "name": "Новокузнецкая",
    "color": [
      "4FB04F"
    ],
    "lat": "55.742391",
    "lng": "37.62928"
  },
  {
    "name": "Новопеределкино",
    "color": [
      "FFCD1C"
    ],
    "lat": "55.6385",
    "lng": "37.3544"
  },
  {
    "name": "Новослободская",
    "color": [
      "915133"
    ],
    "lat": "55.779606",
    "lng": "37.601252"
  },
  {
    "name": "Новохохловская",
    "color": [
      "CC4C6E",
      "E74683"
    ],
    "lat": "55.723889",
    "lng": "37.716111"
  },
  {
    "name": "Новоясеневская",
    "color": [
      "F07E24"
    ],
    "lat": "55.601947",
    "lng": "37.553017"
  },
  {
    "name": "Новые Черемушки",
    "color": [
      "F07E24"
    ],
    "lat": "55.670077",
    "lng": "37.554493"
  },
  {
    "name": "Одинцово",
    "color": [
      "F5A528"
    ],
    "lat": "55.67798",
    "lng": "37.27773"
  },
  {
    "name": "Озёрная",
    "color": [
      "FFCD1C"
    ],
    "lat": "55.6698",
    "lng": "37.4495"
  },
  {
    "name": "Окружная",
    "color": [
      "BED12C",
      "CC4C6E",
      "F5A528"
    ],
    "lat": "55.848889",
    "lng": "37.571111"
  },
  {
    "name": "Окская",
    "color": [
      "CC0066"
    ],
    "lat": "55.72",
    "lng": "37.77"
  },
  {
    "name": "Октябрьская",
    "color": [
      "F07E24",
      "915133"
    ],
    "lat": "55.731232",
    "lng": "37.612851"
  },
  {
    "name": "Октябрьское поле",
    "color": [
      "943E90"
    ],
    "lat": "55.793581",
    "lng": "37.493317"
  },
  {
    "name": "Ольховая ",
    "color": [
      "E42313"
    ],
    "lat": "55.5692",
    "lng": "37.4589"
  },
  {
    "name": "Опалиха",
    "color": [
      "E74683"
    ],
    "lat": "55.82333",
    "lng": "37.246843"
  },
  {
    "name": "Орехово",
    "color": [
      "4FB04F"
    ],
    "lat": "55.61269",
    "lng": "37.695214"
  },
  {
    "name": "Остафьево",
    "color": [
      "E74683"
    ],
    "lat": "55.50337",
    "lng": "37.520055"
  },
  {
    "name": "Отрадное",
    "color": [
      "ADACAC"
    ],
    "lat": "55.864273",
    "lng": "37.605066"
  },
  {
    "name": "Охотный ряд",
    "color": [
      "E42313"
    ],
    "lat": "55.757228",
    "lng": "37.615078"
  },
  {
    "name": "Павелецкая",
    "color": [
      "4FB04F",
      "915133"
    ],
    "lat": "55.729741",
    "lng": "37.638693"
  },
  {
    "name": "Павшино",
    "color": [
      "E74683"
    ],
    "lat": "55.815231",
    "lng": "37.341461"
  },
  {
    "name": "Панфиловская",
    "color": [
      "CC4C6E"
    ],
    "lat": "55.799167",
    "lng": "37.498889"
  },
  {
    "name": "Парк Победы",
    "color": [
      "0072BA",
      "FFCD1C"
    ],
    "lat": "55.735679",
    "lng": "37.516865"
  },
  {
    "name": "Парк культуры",
    "color": [
      "E42313",
      "915133"
    ],
    "lat": "55.736163",
    "lng": "37.595027"
  },
  {
    "name": "Партизанская",
    "color": [
      "0072BA"
    ],
    "lat": "55.788401",
    "lng": "37.74882"
  },
  {
    "name": "Пенягино",
    "color": [
      "E74683"
    ],
    "lat": "55.822539",
    "lng": "37.361049"
  },
  {
    "name": "Первомайская",
    "color": [
      "0072BA"
    ],
    "lat": "55.794376",
    "lng": "37.799364"
  },
  {
    "name": "Перерва",
    "color": [
      "E74683"
    ],
    "lat": "55.660809",
    "lng": "37.716278"
  },
  {
    "name": "Перово",
    "color": [
      "FFCD1C"
    ],
    "lat": "55.75098",
    "lng": "37.78422"
  },
  {
    "name": "Петровский парк",
    "color": [
      "88CDCF"
    ],
    "lat": "55.79233",
    "lng": "37.55952"
  },
  {
    "name": "Петровско-Разумовская",
    "color": [
      "ADACAC",
      "BED12C"
    ],
    "lat": "55.836565",
    "lng": "37.575512"
  },
  {
    "name": "Печатники",
    "color": [
      "BED12C"
    ],
    "lat": "55.692921",
    "lng": "37.728338"
  },
  {
    "name": "Пионерская",
    "color": [
      "1EBCEF"
    ],
    "lat": "55.736027",
    "lng": "37.466728"
  },
  {
    "name": "Планерная",
    "color": [
      "943E90"
    ],
    "lat": "55.859676",
    "lng": "37.436808"
  },
  {
    "name": "Площадь Гагарина",
    "color": [
      "CC4C6E"
    ],
    "lat": "55.706944",
    "lng": "37.585833"
  },
  {
    "name": "Площадь Ильича",
    "color": [
      "FFCD1C"
    ],
    "lat": "55.747115",
    "lng": "37.680726"
  },
  {
    "name": "Площадь Революции",
    "color": [
      "0072BA"
    ],
    "lat": "55.756741",
    "lng": "37.62236"
  },
  {
    "name": "Подольск",
    "color": [
      "E74683"
    ],
    "lat": "55.431667",
    "lng": "37.565"
  },
  {
    "name": "Покровское",
    "color": [
      "E74683"
    ],
    "lat": "55.814247",
    "lng": "37.47678"
  },
  {
    "name": "Покровское-Стрешнево",
    "color": [
      "E74683"
    ],
    "lat": "55.814247",
    "lng": "37.47678"
  },
  {
    "name": "Полежаевская",
    "color": [
      "943E90"
    ],
    "lat": "55.777201",
    "lng": "37.517895"
  },
  {
    "name": "Полянка",
    "color": [
      "ADACAC"
    ],
    "lat": "55.736795",
    "lng": "37.618594"
  },
  {
    "name": "Пражская",
    "color": [
      "ADACAC"
    ],
    "lat": "55.610962",
    "lng": "37.602386"
  },
  {
    "name": "Преображенская площадь",
    "color": [
      "E42313"
    ],
    "lat": "55.796322",
    "lng": "37.713582"
  },
  {
    "name": "Прокшино ",
    "color": [
      "E42313"
    ],
    "lat": "55.5813",
    "lng": "37.4425"
  },
  {
    "name": "Пролетарская",
    "color": [
      "943E90"
    ],
    "lat": "55.731546",
    "lng": "37.666917"
  },
  {
    "name": "Проспект Вернадского",
    "color": [
      "E42313",
      "88CDCF"
    ],
    "lat": "55.676549",
    "lng": "37.504584"
  },
  {
    "name": "Проспект Мира",
    "color": [
      "F07E24",
      "915133"
    ],
    "lat": "55.781827",
    "lng": "37.633199"
  },
  {
    "name": "Профсоюзная",
    "color": [
      "F07E24"
    ],
    "lat": "55.677671",
    "lng": "37.562595"
  },
  {
    "name": "Пушкинская",
    "color": [
      "943E90"
    ],
    "lat": "55.765607",
    "lng": "37.604356"
  },
  {
    "name": "Пятницкое шоссе",
    "color": [
      "0072BA"
    ],
    "lat": "55.853634",
    "lng": "37.353108"
  },
  {
    "name": "Рабочий Посёлок",
    "color": [
      "F5A528"
    ],
    "lat": "55.726957",
    "lng": "37.415577"
  },
  {
    "name": "Раменки",
    "color": [
      "FFCD1C"
    ],
    "lat": "55.6961",
    "lng": "37.505"
  },
  {
    "name": "Рассказовка",
    "color": [
      "FFCD1C"
    ],
    "lat": "55.6324",
    "lng": "37.3328"
  },
  {
    "name": "Речной вокзал",
    "color": [
      "4FB04F"
    ],
    "lat": "55.854152",
    "lng": "37.476728"
  },
  {
    "name": "Рижская",
    "color": [
      "F07E24",
      "E74683"
    ],
    "lat": "55.792494",
    "lng": "37.636114"
  },
  {
    "name": "Римская",
    "color": [
      "BED12C"
    ],
    "lat": "55.747027",
    "lng": "37.679996"
  },
  {
    "name": "Ростокино",
    "color": [
      "CC4C6E"
    ],
    "lat": "55.839444",
    "lng": "37.667778"
  },
  {
    "name": "Румянцево",
    "color": [
      "E42313"
    ],
    "lat": "55.633",
    "lng": "37.4419"
  },
  {
    "name": "Рязанский проспект",
    "color": [
      "943E90"
    ],
    "lat": "55.716139",
    "lng": "37.792694"
  },
  {
    "name": "Савёловская",
    "color": [
      "ADACAC",
      "88CDCF",
      "F5A528"
    ],
    "lat": "55.794054",
    "lng": "37.587163"
  },
  {
    "name": "Саларьево",
    "color": [
      "E42313"
    ],
    "lat": "55.6227",
    "lng": "37.424"
  },
  {
    "name": "Свиблово",
    "color": [
      "F07E24"
    ],
    "lat": "55.855558",
    "lng": "37.653379"
  },
  {
    "name": "Севастопольская",
    "color": [
      "ADACAC"
    ],
    "lat": "55.651451",
    "lng": "37.59809"
  },
  {
    "name": "Селигерская",
    "color": [
      "BED12C"
    ],
    "lat": "55.86483",
    "lng": "37.55005"
  },
  {
    "name": "Семеновская",
    "color": [
      "0072BA"
    ],
    "lat": "55.783096",
    "lng": "37.719289"
  },
  {
    "name": "Серпуховская",
    "color": [
      "ADACAC"
    ],
    "lat": "55.726548",
    "lng": "37.624792"
  },
  {
    "name": "Сетунь",
    "color": [
      "F5A528"
    ],
    "lat": "55.723713",
    "lng": "37.397259"
  },
  {
    "name": "Силикатная",
    "color": [
      "E74683"
    ],
    "lat": "55.470278",
    "lng": "37.555278"
  },
  {
    "name": "Сколково",
    "color": [
      "F5A528"
    ],
    "lat": "55.666801",
    "lng": "37.424618"
  },
  {
    "name": "Славянский бульвар",
    "color": [
      "0072BA",
      "F5A528"
    ],
    "lat": "55.729542",
    "lng": "37.470973"
  },
  {
    "name": "Смоленская",
    "color": [
      "0072BA",
      "1EBCEF"
    ],
    "lat": "55.747713",
    "lng": "37.583802"
  },
  {
    "name": "Сокол",
    "color": [
      "4FB04F"
    ],
    "lat": "55.805564",
    "lng": "37.515245"
  },
  {
    "name": "Соколиная Гора",
    "color": [
      "CC4C6E"
    ],
    "lat": "55.77",
    "lng": "37.745278"
  },
  {
    "name": "Сокольники",
    "color": [
      "E42313"
    ],
    "lat": "55.789282",
    "lng": "37.679895"
  },
  {
    "name": "Солнцево",
    "color": [
      "FFCD1C"
    ],
    "lat": "55.649",
    "lng": "37.3911"
  },
  {
    "name": "Спартак",
    "color": [
      "943E90"
    ],
    "lat": "55.8182",
    "lng": "37.4352"
  },
  {
    "name": "Спортивная",
    "color": [
      "E42313"
    ],
    "lat": "55.722388",
    "lng": "37.562041"
  },
  {
    "name": "Сретенский бульвар",
    "color": [
      "BED12C"
    ],
    "lat": "55.766106",
    "lng": "37.635688"
  },
  {
    "name": "Стахановская",
    "color": [
      "CC0066"
    ],
    "lat": "55.73",
    "lng": "37.76"
  },
  {
    "name": "Стрешнево",
    "color": [
      "CC4C6E",
      "E74683"
    ],
    "lat": "55.813611",
    "lng": "37.486944"
  },
  {
    "name": "Строгино",
    "color": [
      "0072BA"
    ],
    "lat": "55.803831",
    "lng": "37.402405"
  },
  {
    "name": "Студенческая",
    "color": [
      "1EBCEF"
    ],
    "lat": "55.738761",
    "lng": "37.54842"
  },
  {
    "name": "Сухаревская",
    "color": [
      "F07E24"
    ],
    "lat": "55.772315",
    "lng": "37.63285"
  },
  {
    "name": "Сходненская",
    "color": [
      "943E90"
    ],
    "lat": "55.84926",
    "lng": "37.44076"
  },
  {
    "name": "Таганская",
    "color": [
      "943E90",
      "915133"
    ],
    "lat": "55.739502",
    "lng": "37.653605"
  },
  {
    "name": "Тверская",
    "color": [
      "4FB04F"
    ],
    "lat": "55.765343",
    "lng": "37.603918"
  },
  {
    "name": "Театральная",
    "color": [
      "4FB04F"
    ],
    "lat": "55.758808",
    "lng": "37.61768"
  },
  {
    "name": "Текстильщики",
    "color": [
      "943E90",
      "E74683"
    ],
    "lat": "55.709211",
    "lng": "37.732117"
  },
  {
    "name": "Телецентр",
    "color": [
      "006DA8"
    ],
    "lat": "55.821795",
    "lng": "37.608975"
  },
  {
    "name": "Теплый Стан",
    "color": [
      "F07E24"
    ],
    "lat": "55.61873",
    "lng": "37.505912"
  },
  {
    "name": "Терехово",
    "color": [
      "88CDCF"
    ],
    "lat": "55.749167",
    "lng": "38.460556"
  },
  {
    "name": "Тестовская",
    "color": [
      "F5A528"
    ],
    "lat": "55.754292",
    "lng": "37.531551"
  },
  {
    "name": "Технопарк",
    "color": [
      "4FB04F"
    ],
    "lat": "55.695",
    "lng": "37.664167"
  },
  {
    "name": "Тимирязевская",
    "color": [
      "ADACAC",
      "006DA8",
      "F5A528"
    ],
    "lat": "55.81866",
    "lng": "37.574498"
  },
  {
    "name": "Третьяковская",
    "color": [
      "FFCD1C",
      "F07E24"
    ],
    "lat": "55.741125",
    "lng": "37.626142"
  },
  {
    "name": "Трикотажная",
    "color": [
      "E74683"
    ],
    "lat": "55.833137",
    "lng": "37.398967"
  },
  {
    "name": "Тропарево",
    "color": [
      "E42313"
    ],
    "lat": "55.6459",
    "lng": "37.4725"
  },
  {
    "name": "Трубная",
    "color": [
      "BED12C"
    ],
    "lat": "55.76771",
    "lng": "37.621926"
  },
  {
    "name": "Тульская",
    "color": [
      "ADACAC"
    ],
    "lat": "55.70961",
    "lng": "37.622569"
  },
  {
    "name": "Тургеневская",
    "color": [
      "F07E24"
    ],
    "lat": "55.765371",
    "lng": "37.636732"
  },
  {
    "name": "Тушинская",
    "color": [
      "943E90",
      "E74683"
    ],
    "lat": "55.825479",
    "lng": "37.437024"
  },
  {
    "name": "Угрешская",
    "color": [
      "CC4C6E"
    ],
    "lat": "55.718333",
    "lng": "37.697778"
  },
  {
    "name": "Улица 1905 года",
    "color": [
      "943E90"
    ],
    "lat": "55.763944",
    "lng": "37.562271"
  },
  {
    "name": "Улица Академика Королёва",
    "color": [
      "006DA8"
    ],
    "lat": "55.821821",
    "lng": "37.627167"
  },
  {
    "name": "Улица Академика Янгеля",
    "color": [
      "ADACAC"
    ],
    "lat": "55.596753",
    "lng": "37.601498"
  },
  {
    "name": "Улица Горчакова",
    "color": [
      "BAC8E8"
    ],
    "lat": "55.542281",
    "lng": "37.532063"
  },
  {
    "name": "Улица Дмитриевского ",
    "color": [
      "CC0066"
    ],
    "lat": "55.7093",
    "lng": "37.8792"
  },
  {
    "name": "Улица Милашенкова",
    "color": [
      "006DA8"
    ],
    "lat": "55.821876",
    "lng": "37.591206"
  },
  {
    "name": "Улица Сергея Эйзенштейна",
    "color": [
      "006DA8"
    ],
    "lat": "55.829305",
    "lng": "37.644997"
  },
  {
    "name": "Улица Скобелевская",
    "color": [
      "BAC8E8"
    ],
    "lat": "55.548103",
    "lng": "37.552721"
  },
  {
    "name": "Улица Старокачаловская",
    "color": [
      "BAC8E8"
    ],
    "lat": "55.569194",
    "lng": "37.576074"
  },
  {
    "name": "Университет",
    "color": [
      "E42313"
    ],
    "lat": "55.69329",
    "lng": "37.534511"
  },
  {
    "name": "Филатов луг",
    "color": [
      "E42313"
    ],
    "lat": "55.5997",
    "lng": "37.4075"
  },
  {
    "name": "Филевский парк",
    "color": [
      "1EBCEF"
    ],
    "lat": "55.739665",
    "lng": "37.483902"
  },
  {
    "name": "Фили",
    "color": [
      "1EBCEF",
      "F5A528"
    ],
    "lat": "55.746763",
    "lng": "37.514035"
  },
  {
    "name": "Фонвизинская",
    "color": [
      "BED12C"
    ],
    "lat": "55.822778",
    "lng": "37.588056"
  },
  {
    "name": "Фрунзенская",
    "color": [
      "E42313"
    ],
    "lat": "55.727462",
    "lng": "37.58022"
  },
  {
    "name": "Хлебниково",
    "color": [
      "F5A528"
    ],
    "lat": "55.970682",
    "lng": "37.504638"
  },
  {
    "name": "Ховрино",
    "color": [
      "4FB04F"
    ],
    "lat": "55.8777",
    "lng": "37.4877"
  },
  {
    "name": "Хорошево",
    "color": [
      "CC4C6E"
    ],
    "lat": "55.777222",
    "lng": "37.507222"
  },
  {
    "name": "Хорошевская",
    "color": [
      "88CDCF"
    ],
    "lat": "55.77643",
    "lng": "37.51981"
  },
  {
    "name": "ЦСКА",
    "color": [
      "88CDCF"
    ],
    "lat": "55.78643",
    "lng": "37.53502"
  },
  {
    "name": "Царицыно",
    "color": [
      "4FB04F",
      "E74683"
    ],
    "lat": "55.620982",
    "lng": "37.669612"
  },
  {
    "name": "Цветной бульвар",
    "color": [
      "ADACAC"
    ],
    "lat": "55.771653",
    "lng": "37.620466"
  },
  {
    "name": "Черкизовская",
    "color": [
      "E42313"
    ],
    "lat": "55.802787",
    "lng": "37.744863"
  },
  {
    "name": "Чертановская",
    "color": [
      "ADACAC"
    ],
    "lat": "55.640538",
    "lng": "37.606065"
  },
  {
    "name": "Чеховская",
    "color": [
      "ADACAC"
    ],
    "lat": "55.765747",
    "lng": "37.608493"
  },
  {
    "name": "Чистые пруды",
    "color": [
      "E42313"
    ],
    "lat": "55.76499",
    "lng": "37.638293"
  },
  {
    "name": "Чкаловская",
    "color": [
      "BED12C"
    ],
    "lat": "55.755951",
    "lng": "37.659293"
  },
  {
    "name": "Шаболовская",
    "color": [
      "F07E24"
    ],
    "lat": "55.718828",
    "lng": "37.607892"
  },
  {
    "name": "Шелепиха",
    "color": [
      "CC4C6E",
      "88CDCF"
    ],
    "lat": "55.7575",
    "lng": "37.525556"
  },
  {
    "name": "Шереметьевская",
    "color": [
      "F5A528"
    ],
    "lat": "55.983882",
    "lng": "37.498752"
  },
  {
    "name": "Шипиловская",
    "color": [
      "BED12C"
    ],
    "lat": "55.621667",
    "lng": "37.743611"
  },
  {
    "name": "Шоссе Энтузиастов",
    "color": [
      "FFCD1C",
      "CC4C6E"
    ],
    "lat": "55.75809",
    "lng": "37.751703"
  },
  {
    "name": "Щелковская",
    "color": [
      "0072BA"
    ],
    "lat": "55.809962",
    "lng": "37.798261"
  },
  {
    "name": "Щербинка",
    "color": [
      "E74683"
    ],
    "lat": "55.509724",
    "lng": "37.562008"
  },
  {
    "name": "Щукинская",
    "color": [
      "943E90"
    ],
    "lat": "55.8094",
    "lng": "37.463241"
  },
  {
    "name": "Электрозаводская",
    "color": [
      "0072BA",
      "88CDCF",
      "CC0066"
    ],
    "lat": "55.782057",
    "lng": "37.7053"
  },
  {
    "name": "Юго-Восточная",
    "color": [
      "CC0066"
    ],
    "lat": "55.71",
    "lng": "37.82"
  },
  {
    "name": "Юго-Западная",
    "color": [
      "E42313"
    ],
    "lat": "55.663146",
    "lng": "37.482852"
  },
  {
    "name": "Южная",
    "color": [
      "ADACAC"
    ],
    "lat": "55.622436",
    "lng": "37.609047"
  },
  {
    "name": "Ясенево",
    "color": [
      "F07E24"
    ],
    "lat": "55.606182",
    "lng": "37.5334"
  }
]